[
  {
    "lng": "-74.386324882507",
    "lat": "39.387917291121",
    "country": "USA, North East, New Jersey",
    "name": "38th St. Beach"
  },
  {
    "lng": "-74.233160018921",
    "lat": "39.564428398249",
    "country": "USA, North East, New Jersey",
    "name": "5th Street Beach Haven"
  },
  {
    "lng": "-73.99530172348",
    "lat": "40.228136953567",
    "country": "USA, North East, New Jersey",
    "name": "Asbury Park"
  },
  {
    "lng": "-74.039504528046",
    "lat": "40.076987783227",
    "country": "USA, North East, New Jersey",
    "name": "Bay Head"
  },
  {
    "lng": "-74.015439748764",
    "lat": "40.172089796197",
    "country": "USA, North East, New Jersey",
    "name": "Belmar - 16th Street"
  },
  {
    "lng": "-74.202572107315",
    "lat": "39.6079199708",
    "country": "USA, North East, New Jersey",
    "name": "L.B.I - 82nd Street"
  },
  {
    "lng": "-74.159774780273",
    "lat": "39.658570567505",
    "country": "USA, North East, New Jersey",
    "name": "LBI - Long Beach Island"
  },
  {
    "lng": "-74.032756090164",
    "lat": "40.102670436153",
    "country": "USA, North East, New Jersey",
    "name": "Manasquan Inlet"
  },
  {
    "lng": "-73.979465961456",
    "lat": "40.297301200657",
    "country": "USA, North East, New Jersey",
    "name": "Pavilion Ave, Long Branch"
  },
  {
    "lng": "-74.944095611572",
    "lat": "38.932239908275",
    "country": "USA, North East, New Jersey",
    "name": "Poverty Beach"
  }
]

